Country,City,ISTAT Code,Comune,Population (2011),Query,Latitude,Longitude
Italy,Torino,1001,Agliè,"2,591","Agliè,Torino,Italy",45.367055,7.766918
Italy,Torino,1002,Airasca,"3,808","Airasca,Torino,Italy",44.917042,7.484321
Italy,Torino,1003,Ala di Stura,465,"Ala di Stura,Torino,Italy",45.31515,7.305909
Italy,Torino,1004,Albiano d'Ivrea,"1,778","Albiano d'Ivrea,Torino,Italy",45.432959,7.950621
Italy,Torino,1006,Almese,"6,378","Almese,Torino,Italy",45.1168763,7.39455
Italy,Torino,1007,Alpette,271,"Alpette,Torino,Italy",45.408916,7.578978
Italy,Torino,1008,Alpignano,"17,097","Alpignano,Torino,Italy",45.0957237,7.5254027
Italy,Torino,1009,Andezeno,"2,010","Andezeno,Torino,Italy",45.037748,7.870527
Italy,Torino,1010,Andrate,521,"Andrate,Torino,Italy",45.52736,7.880318
Italy,Torino,1011,Angrogna,882,"Angrogna,Torino,Italy",44.8435587,7.2236406
Italy,Torino,1012,Arignano,"1,057","Arignano,Torino,Italy",45.0402748,7.9015941
Italy,Torino,1013,Avigliana,"12,367","Avigliana,Torino,Italy",45.0779435,7.3983904
Italy,Torino,1014,Azeglio,"1,375","Azeglio,Torino,Italy",45.423459,7.993922
Italy,Torino,1015,Bairo,819,"Bairo,Torino,Italy",45.3865872,7.7554467
Italy,Torino,1016,Balangero,"3,178","Balangero,Torino,Italy",45.2753229,7.5202821
Italy,Torino,1017,Baldissero Canavese,551,"Baldissero Canavese,Torino,Italy",45.4101863,7.744158
Italy,Torino,1018,Baldissero Torinese,"3,825","Baldissero Torinese,Torino,Italy",45.0686356,7.8165308
Italy,Torino,1019,Balme,97,"Balme,Torino,Italy",45.3025045,7.2154316
Italy,Torino,1020,Banchette,"3,355","Banchette,Torino,Italy",45.453558,7.856318
Italy,Torino,1021,Barbania,"1,632","Barbania,Torino,Italy",45.291252,7.630317
Italy,Torino,1022,Bardonecchia,"3,273","Bardonecchia,Torino,Italy",45.078339,6.703205
Italy,Torino,1023,Barone Canavese,597,"Barone Canavese,Torino,Italy",45.3255274,7.8730627
Italy,Torino,1024,Beinasco,"18,185","Beinasco,Torino,Italy",45.022097,7.5793974
Italy,Torino,1025,Bibiana,"3,399","Bibiana,Torino,Italy",44.798937,7.288219
Italy,Torino,1026,Bobbio Pellice,566,"Bobbio Pellice,Torino,Italy",44.8079522,7.1167645
Italy,Torino,1027,Bollengo,"2,088","Bollengo,Torino,Italy",45.470859,7.94202
Italy,Torino,1028,Borgaro Torinese,"13,502","Borgaro Torinese,Torino,Italy",45.1521446,7.6579731
Italy,Torino,1029,Borgiallo,556,"Borgiallo,Torino,Italy",45.417055,7.668515
Italy,Torino,1030,Borgofranco d'Ivrea,"3,780","Borgofranco d'Ivrea,Torino,Italy",45.51286,7.858017
Italy,Torino,1031,Borgomasino,845,"Borgomasino,Torino,Italy",45.363257,7.987523
Italy,Torino,1032,Borgone Susa,"2,372","Borgone Susa,Torino,Italy",45.1230132,7.2409317
Italy,Torino,1033,Bosconero,"3,101","Bosconero,Torino,Italy",45.2675495,7.7666
Italy,Torino,1034,Brandizzo,"8,297","Brandizzo,Torino,Italy",45.1766065,7.8380043
Italy,Torino,1035,Bricherasio,"4,454","Bricherasio,Torino,Italy",44.8234086,7.3052956
Italy,Torino,1036,Brosso,472,"Brosso,Torino,Italy",45.4925019,7.8032885
Italy,Torino,1037,Brozolo,481,"Brozolo,Torino,Italy",45.1174365,8.0736027
Italy,Torino,1038,Bruino,"8,520","Bruino,Torino,Italy",45.0211522,7.4685506
Italy,Torino,1039,Brusasco,"1,760","Brusasco,Torino,Italy",45.1554921,8.0601029
Italy,Torino,1040,Bruzolo,"1,540","Bruzolo,Torino,Italy",45.1422257,7.195648
Italy,Torino,1041,Buriasco,"1,411","Buriasco,Torino,Italy",44.87364,7.41032
Italy,Torino,1042,Burolo,"1,267","Burolo,Torino,Italy",45.48116,7.93392
Italy,Torino,1043,Busano,"1,571","Busano,Torino,Italy",45.3294385,7.6557322
Italy,Torino,1044,Bussoleno,"6,521","Bussoleno,Torino,Italy",45.1392706,7.1477166
Italy,Torino,1045,Buttigliera Alta,"6,458","Buttigliera Alta,Torino,Italy",45.068804,7.434488
Italy,Torino,1046,Cafasse,"3,585","Cafasse,Torino,Italy",45.2459605,7.5172354
Italy,Torino,1047,Caluso,"7,679","Caluso,Torino,Italy",45.304955,7.895722
Italy,Torino,1048,Cambiano,"6,304","Cambiano,Torino,Italy",44.9714155,7.7786983
Italy,Torino,1049,Campiglione-Fenile,"1,385","Campiglione-Fenile,Torino,Italy",44.8045985,7.322312759550277
Italy,Torino,1050,Candia Canavese,"1,317","Candia Canavese,Torino,Italy",45.327755,7.885121
Italy,Torino,1051,Candiolo,"5,591","Candiolo,Torino,Italy",44.959244,7.601722
Italy,Torino,1052,Canischio,301,"Canischio,Torino,Italy",45.373987,7.5961265
Italy,Torino,1053,Cantalupa,"2,588","Cantalupa,Torino,Italy",44.945941,7.330317
Italy,Torino,1054,Cantoira,554,"Cantoira,Torino,Italy",45.3433486,7.3801242
Italy,Torino,1055,Caprie,"2,136","Caprie,Torino,Italy",45.118845,7.331914
Italy,Torino,1056,Caravino,"1,008","Caravino,Torino,Italy",45.398258,7.960322
Italy,Torino,1057,Carema,771,"Carema,Torino,Italy",45.5833024,7.8104064
Italy,Torino,1058,Carignano,"9,234","Carignano,Torino,Italy",44.906943,7.673225
Italy,Torino,1059,Carmagnola,"28,653","Carmagnola,Torino,Italy",44.8455856,7.7192711
Italy,Torino,1060,Casalborgone,"1,851","Casalborgone,Torino,Italy",45.130451,7.940426
Italy,Torino,1061,Cascinette d'Ivrea,"1,506","Cascinette d'Ivrea,Torino,Italy",45.480159,7.905619
Italy,Torino,1062,Caselette,"2,874","Caselette,Torino,Italy",45.104746,7.480817
Italy,Torino,1063,Caselle Torinese,"18,577","Caselle Torinese,Torino,Italy",45.1774901,7.6463671
Italy,Torino,1064,Castagneto Po,"1,820","Castagneto Po,Torino,Italy",45.159251,7.889425
Italy,Torino,1065,Castagnole Piemonte,"2,186","Castagnole Piemonte,Torino,Italy",44.8990644,7.566528
Italy,Torino,1066,Castellamonte,"10,008","Castellamonte,Torino,Italy",45.381955,7.712117
Italy,Torino,1067,Castelnuovo Nigra,415,"Castelnuovo Nigra,Torino,Italy",45.4374213,7.6992113
Italy,Torino,1068,Castiglione Torinese,"6,336","Castiglione Torinese,Torino,Italy",45.1008236,7.7979174
Italy,Torino,1069,Cavagnolo,"2,383","Cavagnolo,Torino,Italy",45.1521373,8.0514793
Italy,Torino,1070,Cavour,"5,642","Cavour,Torino,Italy",44.7854988,7.3738413
Italy,Torino,1071,Cercenasco,"1,864","Cercenasco,Torino,Italy",44.8612913,7.5012695
Italy,Torino,1072,Ceres,"1,080","Ceres,Torino,Italy",45.3133772,7.3896883
Italy,Torino,1073,Ceresole Reale,164,"Ceresole Reale,Torino,Italy",45.4324775,7.232401
Italy,Torino,1074,Cesana Torinese,"1,040","Cesana Torinese,Torino,Italy",44.9524431,6.7906727
Italy,Torino,1075,Chialamberto,360,"Chialamberto,Torino,Italy",45.3636694,7.3414713
Italy,Torino,1076,Chianocco,"1,695","Chianocco,Torino,Italy",45.1486239,7.1680915
Italy,Torino,1077,Chiaverano,"2,150","Chiaverano,Torino,Italy",45.49886,7.902619
Italy,Torino,1078,Chieri,"36,168","Chieri,Torino,Italy",45.0138842,7.8223544
Italy,Torino,1079,Chiesanuova,216,"Chiesanuova,Torino,Italy",45.4178859,7.6557948
Italy,Torino,1080,Chiomonte,942,"Chiomonte,Torino,Italy",45.119542,6.985306
Italy,Torino,1081,Chiusa di San Michele,"1,687","Chiusa di San Michele,Torino,Italy",45.1039129,7.326972
Italy,Torino,1082,Chivasso,"26,368","Chivasso,Torino,Italy",45.1909588,7.8871864
Italy,Torino,1083,Ciconio,365,"Ciconio,Torino,Italy",45.329915,7.7594925
Italy,Torino,1084,Cintano,264,"Cintano,Torino,Italy",45.428556,7.688115
Italy,Torino,1085,Cinzano,389,"Cinzano,Torino,Italy",45.0946102,7.9239642
Italy,Torino,1086,Cirié,"18,973","Cirié,Torino,Italy",45.2352767,7.6003081
Italy,Torino,1087,Claviere,212,"Claviere,Torino,Italy",44.9387991,6.7502942
Italy,Torino,1088,Coassolo Torinese,"1,571","Coassolo Torinese,Torino,Italy",45.2975828,7.4604581
Italy,Torino,1089,Coazze,"3,339","Coazze,Torino,Italy",45.0521938,7.2979015
Italy,Torino,1090,Collegno,"50,137","Collegno,Torino,Italy",45.0775473,7.5724262
Italy,Torino,1091,Colleretto Castelnuovo,358,"Colleretto Castelnuovo,Torino,Italy",45.4227551,7.6800403
Italy,Torino,1092,Colleretto Giacosa,610,"Colleretto Giacosa,Torino,Italy",45.4318872,7.7995915
Italy,Torino,1093,Condove,"4,704","Condove,Torino,Italy",45.1174186,7.3094552
Italy,Torino,1094,Corio,"3,410","Corio,Torino,Italy",45.3134988,7.5320874
Italy,Torino,1095,Cossano Canavese,528,"Cossano Canavese,Torino,Italy",45.387758,7.991523
Italy,Torino,1096,Cuceglio,"1,000","Cuceglio,Torino,Italy",45.3594346,7.8151868
Italy,Torino,1097,Cumiana,"7,882","Cumiana,Torino,Italy",44.979742,7.376717
Italy,Torino,1098,Cuorgnè,"10,141","Cuorgnè,Torino,Italy",45.3897204,7.6498168
Italy,Torino,1099,Druento,"8,513","Druento,Torino,Italy",45.1344531,7.5764559
Italy,Torino,1100,Exilles,270,"Exilles,Torino,Italy",45.0973834,6.9290646
Italy,Torino,1101,Favria,"5,320","Favria,Torino,Italy",45.331154,7.690617
Italy,Torino,1102,Feletto,"2,410","Feletto,Torino,Italy",45.303853,7.744719
Italy,Torino,1103,Fenestrelle,571,"Fenestrelle,Torino,Italy",45.0360951,7.0495615
Italy,Torino,1104,Fiano,"2,744","Fiano,Torino,Italy",45.2168706,7.5226852
Italy,Torino,1105,Fiorano Canavese,859,"Fiorano Canavese,Torino,Italy",45.467758,7.833718
Italy,Torino,1106,Foglizzo,"2,372","Foglizzo,Torino,Italy",45.2714422,7.8221333
Italy,Torino,1107,Forno Canavese,"3,691","Forno Canavese,Torino,Italy",45.345353,7.591015
Italy,Torino,1108,Frassinetto,277,"Frassinetto,Torino,Italy",45.4371418,7.6067428
Italy,Torino,1109,Front,"1,753","Front,Torino,Italy",45.280852,7.663618
Italy,Torino,1110,Frossasco,"2,870","Frossasco,Torino,Italy",44.9329437,7.3502181
Italy,Torino,1111,Garzigliana,556,"Garzigliana,Torino,Italy",44.837239,7.37442
Italy,Torino,1112,Gassino Torinese,"9,553","Gassino Torinese,Torino,Italy",45.1271131,7.8247919
Italy,Torino,1113,Germagnano,"1,293","Germagnano,Torino,Italy",45.2638716,7.4694832
Italy,Torino,1114,Giaglione,661,"Giaglione,Torino,Italy",45.1402386,7.0147562
Italy,Torino,1115,Giaveno,"16,730","Giaveno,Torino,Italy",45.0420053,7.3519942
Italy,Torino,1116,Givoletto,"3,509","Givoletto,Torino,Italy",45.162248,7.496416
Italy,Torino,1117,Gravere,745,"Gravere,Torino,Italy",45.125342,7.017507
Italy,Torino,1118,Groscavallo,205,"Groscavallo,Torino,Italy",45.3684966,7.2587768
Italy,Torino,1119,Grosso,"1,055","Grosso,Torino,Italy",45.257502,7.5579074
Italy,Torino,1120,Grugliasco,"37,870","Grugliasco,Torino,Italy",45.068046,7.57762
Italy,Torino,1121,Ingria,47,"Ingria,Torino,Italy",45.4664675,7.570917
Italy,Torino,1122,Inverso Pinasca,743,"Inverso Pinasca,Torino,Italy",44.94564,7.218414
Italy,Torino,1123,Isolabella,394,"Isolabella,Torino,Italy",44.9067269,7.9101512
Italy,Torino,1124,Issiglio,422,"Issiglio,Torino,Italy",45.4469344,7.7521217
Italy,Torino,1125,Ivrea,"24,196","Ivrea,Torino,Italy",45.4673791,7.874797
Italy,Torino,1126,La Cassa,"1,821","La Cassa,Torino,Italy",45.1802806,7.5162134
Italy,Torino,1127,La Loggia,"8,457","La Loggia,Torino,Italy",44.957744,7.667324
Italy,Torino,1128,Lanzo Torinese,"5,303","Lanzo Torinese,Torino,Italy",45.2733505,7.4774108
Italy,Torino,1129,Lauriano,"1,546","Lauriano,Torino,Italy",45.158252,7.991627
Italy,Torino,1130,Leini,"15,451","Leini,Torino,Italy",45.1845815,7.7132706
Italy,Torino,1131,Lemie,190,"Lemie,Torino,Italy",45.2281993,7.2920445
Italy,Torino,1132,Lessolo,"1,994","Lessolo,Torino,Italy",45.478258,7.814717
Italy,Torino,1133,Levone,459,"Levone,Torino,Italy",45.3182024,7.6061873
Italy,Torino,1134,Locana,"1,642","Locana,Torino,Italy",45.4176538,7.4588144
Italy,Torino,1135,Lombardore,"1,712","Lombardore,Torino,Italy",45.2352282,7.7365518
Italy,Torino,1136,Lombriasco,"1,075","Lombriasco,Torino,Italy",44.840941,7.635925
Italy,Torino,1137,Loranzè,"1,106","Loranzè,Torino,Italy",45.441657,7.812718
Italy,Torino,1139,Luserna San Giovanni,"7,676","Luserna San Giovanni,Torino,Italy",44.815437,7.251318
Italy,Torino,1140,Lusernetta,531,"Lusernetta,Torino,Italy",44.803137,7.246718
Italy,Torino,1141,Lusigliè,561,"Lusigliè,Torino,Italy",45.3184013,7.7666516
Italy,Torino,1142,Macello,"1,247","Macello,Torino,Italy",44.851139,7.39802
Italy,Torino,1143,Maglione,467,"Maglione,Torino,Italy",45.346657,8.013324
Italy,Torino,1316,Mappano,,"Mappano,Torino,Italy",45.1477917,7.7064607
Italy,Torino,1144,Marentino,"1,409","Marentino,Torino,Italy",45.058032,7.8746227
Italy,Torino,1145,Massello,61,"Massello,Torino,Italy",44.9671575,7.0202425
Italy,Torino,1146,Mathi,"4,074","Mathi,Torino,Italy",45.2551716,7.5419842
Italy,Torino,1147,Mattie,715,"Mattie,Torino,Italy",45.118143,7.115109
Italy,Torino,1148,Mazzè,"4,177","Mazzè,Torino,Italy",45.300255,7.932723
Italy,Torino,1149,Meana di Susa,903,"Meana di Susa,Torino,Italy",45.122043,7.064708
Italy,Torino,1150,Mercenasco,"1,279","Mercenasco,Torino,Italy",45.3571822,7.8823593
Italy,Torino,1152,Mezzenile,844,"Mezzenile,Torino,Italy",45.2951292,7.3944587
Italy,Torino,1153,Mombello di Torino,411,"Mombello di Torino,Torino,Italy",45.045749,7.920827
Italy,Torino,1154,Mompantero,669,"Mompantero,Torino,Italy",45.1420677,7.0644111
Italy,Torino,1155,Monastero di Lanzo,396,"Monastero di Lanzo,Torino,Italy",45.3018726,7.4396812
Italy,Torino,1156,Moncalieri,"58,320","Moncalieri,Torino,Italy",45.0004614,7.6847543
Italy,Torino,1157,Moncenisio,42,"Moncenisio,Torino,Italy",45.2052852,6.9824996
Italy,Torino,1158,Montaldo Torinese,714,"Montaldo Torinese,Torino,Italy",45.0654869,7.8496013
Italy,Torino,1159,Montalenghe,990,"Montalenghe,Torino,Italy",45.337455,7.83882
Italy,Torino,1160,Montalto Dora,"3,493","Montalto Dora,Torino,Italy",45.490759,7.862818
Italy,Torino,1161,Montanaro,"5,405","Montanaro,Torino,Italy",45.233553,7.853323
Italy,Torino,1162,Monteu da Po,897,"Monteu da Po,Torino,Italy",45.1508996,8.016847
Italy,Torino,1163,Moriondo Torinese,810,"Moriondo Torinese,Torino,Italy",45.037649,7.940028
Italy,Torino,1164,Nichelino,"48,946","Nichelino,Torino,Italy",44.9955182,7.6466179
Italy,Torino,1165,Noasca,185,"Noasca,Torino,Italy",45.4539721,7.3145537
Italy,Torino,1166,Nole,"6,907","Nole,Torino,Italy",45.2439409,7.5729927
Italy,Torino,1167,Nomaglio,320,"Nomaglio,Torino,Italy",45.53616,7.860317
Italy,Torino,1168,None,"8,034","None,Torino,Italy",44.933143,7.540121
Italy,Torino,1169,Novalesa,576,"Novalesa,Torino,Italy",45.1896401,7.0154982
Italy,Torino,1170,Oglianico,"1,448","Oglianico,Torino,Italy",45.342554,7.693717
Italy,Torino,1171,Orbassano,"22,345","Orbassano,Torino,Italy",45.0072629,7.5369192
Italy,Torino,1172,Orio Canavese,820,"Orio Canavese,Torino,Italy",45.329255,7.861721
Italy,Torino,1173,Osasco,"1,138","Osasco,Torino,Italy",44.8493681,7.3432431
Italy,Torino,1174,Osasio,897,"Osasio,Torino,Italy",44.871442,7.608024
Italy,Torino,1175,Oulx,"3,209","Oulx,Torino,Italy",45.0330519,6.83251
Italy,Torino,1176,Ozegna,"1,258","Ozegna,Torino,Italy",45.34929,7.742524
Italy,Torino,1177,Palazzo Canavese,850,"Palazzo Canavese,Torino,Italy",45.459259,7.978921
Italy,Torino,1178,Pancalieri,"2,019","Pancalieri,Torino,Italy",44.833441,7.585924
Italy,Torino,1179,Parella,479,"Parella,Torino,Italy",45.430657,7.793217
Italy,Torino,1180,Pavarolo,"1,107","Pavarolo,Torino,Italy",45.0724657,7.8346706
Italy,Torino,1181,Pavone Canavese,"3,899","Pavone Canavese,Torino,Italy",45.4375586,7.8517154
Italy,Torino,1183,Pecetto Torinese,"3,954","Pecetto Torinese,Torino,Italy",45.0168826,7.7499491
Italy,Torino,1184,Perosa Argentina,"3,438","Perosa Argentina,Torino,Italy",44.95744,7.190914
Italy,Torino,1185,Perosa Canavese,578,"Perosa Canavese,Torino,Italy",45.397057,7.830819
Italy,Torino,1186,Perrero,737,"Perrero,Torino,Italy",44.9382635,7.1146439
Italy,Torino,1187,Pertusio,772,"Pertusio,Torino,Italy",45.3567879,7.6385012
Italy,Torino,1188,Pessinetto,614,"Pessinetto,Torino,Italy",45.289093,7.4041615
Italy,Torino,1189,Pianezza,"14,088","Pianezza,Torino,Italy",45.105847,7.543418
Italy,Torino,1190,Pinasca,"3,073","Pinasca,Torino,Italy",44.94264,7.229115
Italy,Torino,1191,Pinerolo,"36,158","Pinerolo,Torino,Italy",44.8873086,7.3319454
Italy,Torino,1192,Pino Torinese,"8,648","Pino Torinese,Torino,Italy",45.039547,7.777125
Italy,Torino,1193,Piobesi Torinese,"3,723","Piobesi Torinese,Torino,Italy",44.932943,7.610123
Italy,Torino,1194,Piossasco,"18,279","Piossasco,Torino,Italy",44.990896,7.4629349
Italy,Torino,1195,Piscina,"3,435","Piscina,Torino,Italy",44.9194418,7.4262115
Italy,Torino,1196,Piverone,"1,381","Piverone,Torino,Italy",45.446259,8.005722
Italy,Torino,1197,Poirino,"10,245","Poirino,Torino,Italy",44.920845,7.846928
Italy,Torino,1198,Pomaretto,"1,087","Pomaretto,Torino,Italy",44.9559831,7.1827794
Italy,Torino,1199,Pont-Canavese,"3,756","Pont-Canavese,Torino,Italy",45.4205265,7.5968553
Italy,Torino,1200,Porte,"1,124","Porte,Torino,Italy",44.8872933,7.2679711
Italy,Torino,1201,Pragelato,794,"Pragelato,Torino,Italy",45.0162171,6.9424531
Italy,Torino,1202,Prali,266,"Prali,Torino,Italy",44.88107345,7.05243906201571
Italy,Torino,1203,Pralormo,"1,939","Pralormo,Torino,Italy",44.859744,7.901431
Italy,Torino,1204,Pramollo,248,"Pramollo,Torino,Italy",44.904484,7.2114001
Italy,Torino,1205,Prarostino,"1,302","Prarostino,Torino,Italy",44.8657923,7.2682233
Italy,Torino,1206,Prascorsano,798,"Prascorsano,Torino,Italy",45.367754,7.616915
Italy,Torino,1207,Pratiglione,564,"Pratiglione,Torino,Italy",45.352753,7.596015
Italy,Torino,1208,Quagliuzzo,339,"Quagliuzzo,Torino,Italy",45.426757,7.781617
Italy,Torino,1209,Quassolo,370,"Quassolo,Torino,Italy",45.5245287,7.8331324
Italy,Torino,1210,Quincinetto,"1,065","Quincinetto,Torino,Italy",45.56296,7.807315
Italy,Torino,1211,Reano,"1,688","Reano,Torino,Italy",45.0520564,7.4304032
Italy,Torino,1212,Ribordone,69,"Ribordone,Torino,Italy",45.4320395,7.50195
Italy,Torino,1213,Rivalba,"1,162","Rivalba,Torino,Italy",45.11835,7.888125
Italy,Torino,1214,Rivalta di Torino,"19,422","Rivalta di Torino,Torino,Italy",45.034045,7.518419
Italy,Torino,1215,Riva presso Chieri,"4,199","Riva presso Chieri,Torino,Italy",44.9864437,7.8694708
Italy,Torino,1216,Rivara,"2,721","Rivara,Torino,Italy",45.3342771,7.6245311
Italy,Torino,1217,Rivarolo Canavese,"12,370","Rivarolo Canavese,Torino,Italy",45.3320235,7.7230498
Italy,Torino,1218,Rivarossa,"1,658","Rivarossa,Torino,Italy",45.2504966,7.7177272
Italy,Torino,1219,Rivoli,"49,591","Rivoli,Torino,Italy",45.0697151,7.5176764
Italy,Torino,1220,Robassomero,"3,023","Robassomero,Torino,Italy",45.200049,7.568917
Italy,Torino,1221,Rocca Canavese,"1,781","Rocca Canavese,Torino,Italy",45.3088539,7.5758632
Italy,Torino,1222,Roletto,"2,028","Roletto,Torino,Italy",44.9246915,7.3313239
Italy,Torino,1223,Romano Canavese,"2,957","Romano Canavese,Torino,Italy",45.388657,7.86652
Italy,Torino,1224,Ronco Canavese,319,"Ronco Canavese,Torino,Italy",45.4997374,7.5468552
Italy,Torino,1225,Rondissone,"1,843","Rondissone,Torino,Italy",45.2467747,7.9654263
Italy,Torino,1226,Rorà,251,"Rorà,Torino,Italy",44.792136,7.199017
Italy,Torino,1227,Roure,897,"Roure,Torino,Italy",45.0014133,7.1294323
Italy,Torino,1228,Rosta,"4,623","Rosta,Torino,Italy",45.067945,7.465117
Italy,Torino,1229,Rubiana,"2,399","Rubiana,Torino,Italy",45.1379458,7.3848302
Italy,Torino,1230,Rueglio,765,"Rueglio,Torino,Italy",45.468258,7.754616
Italy,Torino,1231,Salassa,"1,771","Salassa,Torino,Italy",45.3585264,7.6892385
Italy,Torino,1232,Salbertrand,572,"Salbertrand,Torino,Italy",45.07204,6.883205
Italy,Torino,1233,Salerano Canavese,543,"Salerano Canavese,Torino,Italy",45.458058,7.851118
Italy,Torino,1234,Salza di Pinerolo,79,"Salza di Pinerolo,Torino,Italy",44.934634849999995,7.034466818653048
Italy,Torino,1235,Samone,"1,661","Samone,Torino,Italy",45.4505543,7.845243
Italy,Torino,1236,San Benigno Canavese,"5,675","San Benigno Canavese,Torino,Italy",45.227052,7.785021
Italy,Torino,1237,San Carlo Canavese,"3,943","San Carlo Canavese,Torino,Italy",45.2478256,7.6108432
Italy,Torino,1238,San Colombano Belmonte,375,"San Colombano Belmonte,Torino,Italy",45.382254,7.621015
Italy,Torino,1239,San Didero,574,"San Didero,Torino,Italy",45.135444,7.213011
Italy,Torino,1240,San Francesco al Campo,"4,877","San Francesco al Campo,Torino,Italy",45.2264672,7.6571645
Italy,Torino,1241,Sangano,"3,777","Sangano,Torino,Italy",45.026144,7.448118
Italy,Torino,1242,San Germano Chisone,"1,878","San Germano Chisone,Torino,Italy",44.89855,7.2411746
Italy,Torino,1243,San Gillio,"3,035","San Gillio,Torino,Italy",45.142748,7.535817
Italy,Torino,1244,San Giorgio Canavese,"2,721","San Giorgio Canavese,Torino,Italy",45.334155,7.796819
Italy,Torino,1245,San Giorio di Susa,"1,041","San Giorio di Susa,Torino,Italy",45.1279823,7.1779846
Italy,Torino,1246,San Giusto Canavese,"3,383","San Giusto Canavese,Torino,Italy",45.315154,7.80912
Italy,Torino,1247,San Martino Canavese,865,"San Martino Canavese,Torino,Italy",45.3943495,7.8165588
Italy,Torino,1248,San Maurizio Canavese,"9,763","San Maurizio Canavese,Torino,Italy",45.2166755,7.6312409
Italy,Torino,1249,San Mauro Torinese,"19,311","San Mauro Torinese,Torino,Italy",45.1044124,7.7619962
Italy,Torino,1250,San Pietro Val Lemina,"1,471","San Pietro Val Lemina,Torino,Italy",44.90654,7.310917
Italy,Torino,1251,San Ponso,285,"San Ponso,Torino,Italy",45.350754,7.6698739
Italy,Torino,1252,San Raffaele Cimena,"3,122","San Raffaele Cimena,Torino,Italy",45.15330975,7.853202028998131
Italy,Torino,1253,San Sebastiano da Po,"1,920","San Sebastiano da Po,Torino,Italy",45.167552,7.957226
Italy,Torino,1254,San Secondo di Pinerolo,"3,615","San Secondo di Pinerolo,Torino,Italy",44.8672222,7.298167
Italy,Torino,1255,Sant'Ambrogio di Torino,"4,843","Sant'Ambrogio di Torino,Torino,Italy",45.099445,7.362315
Italy,Torino,1256,Sant'Antonino di Susa,"4,407","Sant'Antonino di Susa,Torino,Italy",45.107044,7.273613
Italy,Torino,1257,Santena,"10,740","Santena,Torino,Italy",44.9491112,7.7718109
Italy,Torino,1258,Sauze di Cesana,252,"Sauze di Cesana,Torino,Italy",44.9404829,6.858975
Italy,Torino,1259,Sauze d'Oulx,"1,171","Sauze d'Oulx,Torino,Italy",45.0270271,6.8583464
Italy,Torino,1260,Scalenghe,"3,311","Scalenghe,Torino,Italy",44.891741,7.492521
Italy,Torino,1261,Scarmagno,811,"Scarmagno,Torino,Italy",45.384456,7.841119
Italy,Torino,1262,Sciolze,"1,515","Sciolze,Torino,Italy",45.0949806,7.8781435
Italy,Torino,1263,Sestriere,889,"Sestriere,Torino,Italy",44.9584528,6.8786855
Italy,Torino,1264,Settimo Rottaro,523,"Settimo Rottaro,Torino,Italy",45.407758,7.993522
Italy,Torino,1265,Settimo Torinese,"47,790","Settimo Torinese,Torino,Italy",45.1373354,7.7710152
Italy,Torino,1266,Settimo Vittone,"1,576","Settimo Vittone,Torino,Italy",45.54976,7.832216
Italy,Torino,1267,Sparone,"1,115","Sparone,Torino,Italy",45.413854,7.543412
Italy,Torino,1268,Strambinello,273,"Strambinello,Torino,Italy",45.4226958,7.7684364
Italy,Torino,1269,Strambino,"6,437","Strambino,Torino,Italy",45.381457,7.88572
Italy,Torino,1270,Susa,"6,727","Susa,Torino,Italy",45.1372115,7.0539789
Italy,Torino,1271,Tavagnasco,807,"Tavagnasco,Torino,Italy",45.5439654,7.8220415
Italy,Torino,1272,Torino,"907,563","Torino,Torino,Italy",45.0677551,7.6824892
Italy,Torino,1273,Torrazza Piemonte,"2,748","Torrazza Piemonte,Torino,Italy",45.2154216,7.9745034
Italy,Torino,1274,Torre Canavese,591,"Torre Canavese,Torino,Italy",45.392056,7.759818
Italy,Torino,1275,Torre Pellice,"4,735","Torre Pellice,Torino,Italy",44.8207682,7.2237145
Italy,Torino,1276,Trana,"3,874","Trana,Torino,Italy",45.039044,7.421817
Italy,Torino,1278,Traversella,350,"Traversella,Torino,Italy",45.508458,7.749415
Italy,Torino,1279,Traves,564,"Traves,Torino,Italy",45.2706125,7.4288577
Italy,Torino,1280,Trofarello,"11,018","Trofarello,Torino,Italy",44.983646,7.745225
Italy,Torino,1281,Usseaux,191,"Usseaux,Torino,Italy",45.048941,7.028508
Italy,Torino,1282,Usseglio,224,"Usseglio,Torino,Italy",45.2331973,7.2177346
Italy,Torino,1283,Vaie,"1,472","Vaie,Torino,Italy",45.102344,7.289413
Italy,Torino,1284,Val della Torre,"3,850","Val della Torre,Torino,Italy",45.155147,7.445015
Italy,Torino,1317,Val di Chy,1246,"Val di Chy,Torino,Italy",45.4611249,7.7928302
Italy,Torino,1318,Valchiusa,1031,"Valchiusa,Torino,Italy",45.4972632,7.7413272
Italy,Torino,1285,Valgioie,952,"Valgioie,Torino,Italy",45.0762363,7.3408936
Italy,Torino,1286,Vallo Torinese,804,"Vallo Torinese,Torino,Italy",45.2247447,7.4955659
Italy,Torino,1287,Valperga,"3,176","Valperga,Torino,Italy",45.3705918,7.6569215
Italy,Torino,1288,Valprato Soana,113,"Valprato Soana,Torino,Italy",45.5214814,7.5493546
Italy,Torino,1289,Varisella,829,"Varisella,Torino,Italy",45.2099414,7.4886064
Italy,Torino,1290,Vauda Canavese,"1,496","Vauda Canavese,Torino,Italy",45.2803899,7.6201312
Italy,Torino,1291,Venaus,959,"Venaus,Torino,Italy",45.1549096,7.0125697
Italy,Torino,1292,Venaria Reale,"34,859","Venaria Reale,Torino,Italy",45.1348114,7.6268658
Italy,Torino,1293,Verolengo,"5,037","Verolengo,Torino,Italy",45.1895918,7.9662734
Italy,Torino,1294,Verrua Savoia,"1,472","Verrua Savoia,Torino,Italy",45.156707,8.092761
Italy,Torino,1295,Vestignè,834,"Vestignè,Torino,Italy",45.385757,7.954822
Italy,Torino,1296,Vialfrè,247,"Vialfrè,Torino,Italy",45.3810192,7.8178285
Italy,Torino,1298,Vidracco,499,"Vidracco,Torino,Italy",45.430657,7.757417
Italy,Torino,1299,Vigone,"5,268","Vigone,Torino,Italy",44.8430668,7.494438
Italy,Torino,1300,Villafranca Piemonte,"4,845","Villafranca Piemonte,Torino,Italy",44.778939,7.500424
Italy,Torino,1301,Villanova Canavese,"1,141","Villanova Canavese,Torino,Italy",45.2425748,7.554506
Italy,Torino,1302,Villarbasse,"3,334","Villarbasse,Torino,Italy",45.045145,7.468418
Italy,Torino,1303,Villar Dora,"3,043","Villar Dora,Torino,Italy",45.114646,7.383515
Italy,Torino,1304,Villareggia,"1,015","Villareggia,Torino,Italy",45.310056,7.976624
Italy,Torino,1305,Villar Focchiardo,"2,079","Villar Focchiardo,Torino,Italy",45.1113887,7.2247248
Italy,Torino,1306,Villar Pellice,"1,124","Villar Pellice,Torino,Italy",44.8079035,7.1575796
Italy,Torino,1307,Villar Perosa,"4,184","Villar Perosa,Torino,Italy",44.9190563,7.2502858
Italy,Torino,1308,Villastellone,"4,898","Villastellone,Torino,Italy",44.9186115,7.7443466
Italy,Torino,1309,Vinovo,"14,200","Vinovo,Torino,Italy",44.94839,7.6339287
Italy,Torino,1310,Virle Piemonte,"1,212","Virle Piemonte,Torino,Italy",44.864541,7.570123
Italy,Torino,1311,Vische,"1,342","Vische,Torino,Italy",45.3355889,7.9448175
Italy,Torino,1312,Vistrorio,547,"Vistrorio,Torino,Italy",45.4423436,7.7681449
Italy,Torino,1313,Viù,"1,141","Viù,Torino,Italy",45.2391603,7.3758398
Italy,Torino,1314,Volpiano,"15,097","Volpiano,Torino,Italy",45.201451,7.778222
Italy,Torino,1315,Volvera,"8,707","Volvera,Torino,Italy",44.9564642,7.5110517
